[
  {
    "id": "C001",
    "name": "울산과학기술원(유니스트)",
    "shortName": "울산과학기술",
    "lat": 35.5752,
    "lng": 129.1824,
    "product": "N2",
    "productName": "액화질소",
    "tankCapacity": 5300,
    "currentLevel": 10,
    "dailyConsumption": 520,
    "depletionDays": 1.0,
    "riskLevel": "danger",
    "monthlyDeliveries": 31
  },
  {
    "id": "C002",
    "name": "매곡정수장",
    "shortName": "매곡정수장",
    "lat": 35.5588,
    "lng": 129.3278,
    "product": "O2",
    "productName": "액화산소",
    "tankCapacity": 6700,
    "currentLevel": 17,
    "dailyConsumption": 480,
    "depletionDays": 2.4,
    "riskLevel": "danger",
    "monthlyDeliveries": 12
  },
  {
    "id": "C003",
    "name": "서한이앤피",
    "shortName": "서한이앤피",
    "lat": 35.5468,
    "lng": 129.2775,
    "product": "O2",
    "productName": "액화산소",
    "tankCapacity": 3900,
    "currentLevel": 17,
    "dailyConsumption": 390,
    "depletionDays": 1.7,
    "riskLevel": "danger",
    "monthlyDeliveries": 16
  },
  {
    "id": "C004",
    "name": "홍인화학",
    "shortName": "홍인화학",
    "lat": 35.5244,
    "lng": 129.3072,
    "product": "N2",
    "productName": "액화질소",
    "tankCapacity": 7500,
    "currentLevel": 49,
    "dailyConsumption": 600,
    "depletionDays": 6.1,
    "riskLevel": "warning",
    "monthlyDeliveries": 16
  },
  {
    "id": "C005",
    "name": "대구경북과학기술원(연구동)",
    "shortName": "대구경북과학",
    "lat": 35.8714,
    "lng": 128.606,
    "product": "N2",
    "productName": "액화질소",
    "tankCapacity": 3100,
    "currentLevel": 40,
    "dailyConsumption": 180,
    "depletionDays": 6.9,
    "riskLevel": "warning",
    "monthlyDeliveries": 10
  },
  {
    "id": "C006",
    "name": "삼흥에너지자가탱크",
    "shortName": "삼흥에너지자",
    "lat": 35.5343,
    "lng": 129.3181,
    "product": "O2",
    "productName": "액화산소",
    "tankCapacity": 4400,
    "currentLevel": 47,
    "dailyConsumption": 530,
    "depletionDays": 3.9,
    "riskLevel": "warning",
    "monthlyDeliveries": 18
  },
  {
    "id": "C007",
    "name": "기승공업2공장",
    "shortName": "기승공업2공",
    "lat": 35.4813,
    "lng": 129.3766,
    "product": "AR",
    "productName": "액화아르곤",
    "tankCapacity": 5000,
    "currentLevel": 38,
    "dailyConsumption": 390,
    "depletionDays": 4.9,
    "riskLevel": "warning",
    "monthlyDeliveries": 17
  },
  {
    "id": "C008",
    "name": "덕산하이메탈",
    "shortName": "덕산하이메탈",
    "lat": 35.5681,
    "lng": 129.3207,
    "product": "N2",
    "productName": "액화질소",
    "tankCapacity": 6000,
    "currentLevel": 37,
    "dailyConsumption": 410,
    "depletionDays": 5.4,
    "riskLevel": "warning",
    "monthlyDeliveries": 6
  },
  {
    "id": "C009",
    "name": "대구경북과학기술원(학부동)",
    "shortName": "대구경북과학",
    "lat": 35.8627,
    "lng": 128.5966,
    "product": "AR",
    "productName": "액화아르곤",
    "tankCapacity": 3200,
    "currentLevel": 82,
    "dailyConsumption": 160,
    "depletionDays": 16.4,
    "riskLevel": "safe",
    "monthlyDeliveries": 11
  },
  {
    "id": "C010",
    "name": "덕산정수장",
    "shortName": "덕산정수장",
    "lat": 35.4897,
    "lng": 129.2843,
    "product": "O2",
    "productName": "액화산소",
    "tankCapacity": 4500,
    "currentLevel": 66,
    "dailyConsumption": 490,
    "depletionDays": 6.1,
    "riskLevel": "warning",
    "monthlyDeliveries": 4
  },
  {
    "id": "C011",
    "name": "신한중공업 1공장",
    "shortName": "신한중공업 ",
    "lat": 35.4979,
    "lng": 129.3044,
    "product": "O2",
    "productName": "액화산소",
    "tankCapacity": 5500,
    "currentLevel": 72,
    "dailyConsumption": 360,
    "depletionDays": 11.0,
    "riskLevel": "safe",
    "monthlyDeliveries": 8
  },
  {
    "id": "C012",
    "name": "평화발레오",
    "shortName": "평화발레오",
    "lat": 35.541,
    "lng": 129.2974,
    "product": "N2",
    "productName": "액화질소",
    "tankCapacity": 7600,
    "currentLevel": 65,
    "dailyConsumption": 770,
    "depletionDays": 6.4,
    "riskLevel": "warning",
    "monthlyDeliveries": 6
  },
  {
    "id": "C013",
    "name": "회야정수장",
    "shortName": "회야정수장",
    "lat": 35.5499,
    "lng": 129.3556,
    "product": "O2",
    "productName": "액화산소",
    "tankCapacity": 4300,
    "currentLevel": 57,
    "dailyConsumption": 350,
    "depletionDays": 7.0,
    "riskLevel": "safe",
    "monthlyDeliveries": 4
  },
  {
    "id": "C014",
    "name": "현대중공업-본사",
    "shortName": "현대중공업-",
    "lat": 35.5044,
    "lng": 129.3821,
    "product": "N2",
    "productName": "액화질소",
    "tankCapacity": 5600,
    "currentLevel": 70,
    "dailyConsumption": 570,
    "depletionDays": 6.9,
    "riskLevel": "warning",
    "monthlyDeliveries": 5
  },
  {
    "id": "C015",
    "name": "대구경북과학기술원(학부동)",
    "shortName": "대구경북과학",
    "lat": 35.8683,
    "lng": 128.6076,
    "product": "N2",
    "productName": "액화질소",
    "tankCapacity": 6800,
    "currentLevel": 59,
    "dailyConsumption": 770,
    "depletionDays": 5.2,
    "riskLevel": "warning",
    "monthlyDeliveries": 6
  },
  {
    "id": "C016",
    "name": "동우에이치에스티",
    "shortName": "동우",
    "lat": 35.4909,
    "lng": 129.3387,
    "product": "N2",
    "productName": "액화질소",
    "tankCapacity": 7800,
    "currentLevel": 53,
    "dailyConsumption": 640,
    "depletionDays": 6.5,
    "riskLevel": "warning",
    "monthlyDeliveries": 16
  },
  {
    "id": "C017",
    "name": "한텍-온산",
    "shortName": "한텍-온산",
    "lat": 35.43,
    "lng": 129.2852,
    "product": "AR",
    "productName": "액화아르곤",
    "tankCapacity": 4000,
    "currentLevel": 31,
    "dailyConsumption": 490,
    "depletionDays": 2.5,
    "riskLevel": "danger",
    "monthlyDeliveries": 9
  },
  {
    "id": "C018",
    "name": "케이조선",
    "shortName": "케이조선",
    "lat": 35.5507,
    "lng": 129.2912,
    "product": "CO2",
    "productName": "액화탄산",
    "tankCapacity": 4400,
    "currentLevel": 73,
    "dailyConsumption": 560,
    "depletionDays": 5.7,
    "riskLevel": "warning",
    "monthlyDeliveries": 4
  },
  {
    "id": "C019",
    "name": "현대힘스(주) 냉천1공장",
    "shortName": "현대힘스 냉",
    "lat": 35.5065,
    "lng": 129.3195,
    "product": "LPG",
    "productName": "액화석유가스",
    "tankCapacity": 5100,
    "currentLevel": 26,
    "dailyConsumption": 260,
    "depletionDays": 5.1,
    "riskLevel": "warning",
    "monthlyDeliveries": 5
  },
  {
    "id": "C020",
    "name": "울산대학교병원(의료용)",
    "shortName": "울산대학교병",
    "lat": 35.5439,
    "lng": 129.3488,
    "product": "O2",
    "productName": "액화산소(의료용)",
    "tankCapacity": 6600,
    "currentLevel": 59,
    "dailyConsumption": 470,
    "depletionDays": 8.3,
    "riskLevel": "safe",
    "monthlyDeliveries": 4
  },
  {
    "id": "C021",
    "name": "칠서정수장",
    "shortName": "칠서정수장",
    "lat": 35.5436,
    "lng": 129.3054,
    "product": "O2",
    "productName": "액화산소",
    "tankCapacity": 3000,
    "currentLevel": 58,
    "dailyConsumption": 150,
    "depletionDays": 11.6,
    "riskLevel": "safe",
    "monthlyDeliveries": 3
  },
  {
    "id": "C022",
    "name": "명동정수장",
    "shortName": "명동정수장",
    "lat": 35.5673,
    "lng": 129.3551,
    "product": "O2",
    "productName": "액화산소",
    "tankCapacity": 5600,
    "currentLevel": 89,
    "dailyConsumption": 510,
    "depletionDays": 9.8,
    "riskLevel": "safe",
    "monthlyDeliveries": 3
  },
  {
    "id": "C023",
    "name": "삼계정수장(O2)",
    "shortName": "삼계정수장(",
    "lat": 35.5351,
    "lng": 129.289,
    "product": "O2",
    "productName": "액화산소",
    "tankCapacity": 6200,
    "currentLevel": 25,
    "dailyConsumption": 330,
    "depletionDays": 4.7,
    "riskLevel": "warning",
    "monthlyDeliveries": 3
  },
  {
    "id": "C024",
    "name": "삼흥에너지자가탱크",
    "shortName": "삼흥에너지자",
    "lat": 35.5237,
    "lng": 129.3264,
    "product": "N2",
    "productName": "액화질소",
    "tankCapacity": 5500,
    "currentLevel": 55,
    "dailyConsumption": 540,
    "depletionDays": 5.6,
    "riskLevel": "warning",
    "monthlyDeliveries": 7
  },
  {
    "id": "C025",
    "name": "용진",
    "shortName": "용진",
    "lat": 35.5512,
    "lng": 129.3834,
    "product": "O2",
    "productName": "액화산소",
    "tankCapacity": 3300,
    "currentLevel": 93,
    "dailyConsumption": 170,
    "depletionDays": 18.1,
    "riskLevel": "safe",
    "monthlyDeliveries": 13
  },
  {
    "id": "C026",
    "name": "디에스가스텍 자가탱크",
    "shortName": "디에스가스텍",
    "lat": 35.5462,
    "lng": 129.2862,
    "product": "AR",
    "productName": "액화아르곤",
    "tankCapacity": 3100,
    "currentLevel": 79,
    "dailyConsumption": 220,
    "depletionDays": 11.1,
    "riskLevel": "safe",
    "monthlyDeliveries": 5
  },
  {
    "id": "C027",
    "name": "대창솔루션",
    "shortName": "대창솔루션",
    "lat": 35.5705,
    "lng": 129.3845,
    "product": "O2",
    "productName": "액화산소",
    "tankCapacity": 5900,
    "currentLevel": 72,
    "dailyConsumption": 530,
    "depletionDays": 8.0,
    "riskLevel": "safe",
    "monthlyDeliveries": 3
  },
  {
    "id": "C028",
    "name": "매곡정수장",
    "shortName": "매곡정수장",
    "lat": 35.554,
    "lng": 129.3253,
    "product": "CO2",
    "productName": "액화탄산",
    "tankCapacity": 2500,
    "currentLevel": 33,
    "dailyConsumption": 240,
    "depletionDays": 3.4,
    "riskLevel": "warning",
    "monthlyDeliveries": 2
  },
  {
    "id": "C029",
    "name": "롯데정밀-EA(정밀제품과)",
    "shortName": "롯데정밀-E",
    "lat": 35.5124,
    "lng": 129.3494,
    "product": "N2",
    "productName": "액화질소",
    "tankCapacity": 4900,
    "currentLevel": 25,
    "dailyConsumption": 330,
    "depletionDays": 3.7,
    "riskLevel": "warning",
    "monthlyDeliveries": 4
  },
  {
    "id": "C030",
    "name": "서림철강",
    "shortName": "서림철강",
    "lat": 35.4728,
    "lng": 129.3522,
    "product": "N2",
    "productName": "액화질소",
    "tankCapacity": 5700,
    "currentLevel": 55,
    "dailyConsumption": 720,
    "depletionDays": 4.4,
    "riskLevel": "warning",
    "monthlyDeliveries": 2
  },
  {
    "id": "C031",
    "name": "흥화(경포)",
    "shortName": "흥화(경포)",
    "lat": 35.5645,
    "lng": 129.3578,
    "product": "CO2",
    "productName": "액화탄산",
    "tankCapacity": 4200,
    "currentLevel": 85,
    "dailyConsumption": 480,
    "depletionDays": 7.4,
    "riskLevel": "safe",
    "monthlyDeliveries": 3
  },
  {
    "id": "C032",
    "name": "대영전기2공장",
    "shortName": "대영전기2공",
    "lat": 35.4928,
    "lng": 129.3203,
    "product": "AR",
    "productName": "액화아르곤",
    "tankCapacity": 4700,
    "currentLevel": 79,
    "dailyConsumption": 370,
    "depletionDays": 10.0,
    "riskLevel": "safe",
    "monthlyDeliveries": 17
  },
  {
    "id": "C033",
    "name": "부경스틸",
    "shortName": "부경스틸",
    "lat": 35.504,
    "lng": 129.3761,
    "product": "O2",
    "productName": "액화산소",
    "tankCapacity": 5600,
    "currentLevel": 76,
    "dailyConsumption": 680,
    "depletionDays": 6.3,
    "riskLevel": "warning",
    "monthlyDeliveries": 9
  },
  {
    "id": "C034",
    "name": "두현분말(양산2공장)",
    "shortName": "두현분말(양",
    "lat": 35.3387,
    "lng": 129.0428,
    "product": "N2",
    "productName": "액화질소",
    "tankCapacity": 3900,
    "currentLevel": 49,
    "dailyConsumption": 380,
    "depletionDays": 5.0,
    "riskLevel": "warning",
    "monthlyDeliveries": 7
  },
  {
    "id": "C035",
    "name": "해원단조",
    "shortName": "해원단조",
    "lat": 35.5186,
    "lng": 129.2862,
    "product": "O2",
    "productName": "액화산소",
    "tankCapacity": 6600,
    "currentLevel": 81,
    "dailyConsumption": 350,
    "depletionDays": 15.3,
    "riskLevel": "safe",
    "monthlyDeliveries": 4
  },
  {
    "id": "C036",
    "name": "현대삼호중공업",
    "shortName": "현대삼호중공",
    "lat": 35.5444,
    "lng": 129.3752,
    "product": "C2H4",
    "productName": "액화에틸렌",
    "tankCapacity": 4200,
    "currentLevel": 36,
    "dailyConsumption": 240,
    "depletionDays": 6.3,
    "riskLevel": "warning",
    "monthlyDeliveries": 4
  },
  {
    "id": "C037",
    "name": "삼동스틸",
    "shortName": "삼동스틸",
    "lat": 35.5573,
    "lng": 129.3716,
    "product": "CO2",
    "productName": "액화탄산",
    "tankCapacity": 2900,
    "currentLevel": 32,
    "dailyConsumption": 160,
    "depletionDays": 5.8,
    "riskLevel": "warning",
    "monthlyDeliveries": 6
  },
  {
    "id": "C038",
    "name": "신원테크",
    "shortName": "신원테크",
    "lat": 35.4847,
    "lng": 129.2771,
    "product": "O2",
    "productName": "액화산소",
    "tankCapacity": 6200,
    "currentLevel": 79,
    "dailyConsumption": 480,
    "depletionDays": 10.2,
    "riskLevel": "safe",
    "monthlyDeliveries": 4
  },
  {
    "id": "C039",
    "name": "디아이씨두동(벌크)",
    "shortName": "디아이씨두동",
    "lat": 35.4981,
    "lng": 129.3637,
    "product": "LPG",
    "productName": "액화석유가스",
    "tankCapacity": 7600,
    "currentLevel": 87,
    "dailyConsumption": 490,
    "depletionDays": 13.5,
    "riskLevel": "safe",
    "monthlyDeliveries": 13
  },
  {
    "id": "C040",
    "name": "동성산기온산신공장",
    "shortName": "동성산기온산",
    "lat": 35.4165,
    "lng": 129.2877,
    "product": "CO2",
    "productName": "액화탄산",
    "tankCapacity": 2200,
    "currentLevel": 94,
    "dailyConsumption": 150,
    "depletionDays": 13.8,
    "riskLevel": "safe",
    "monthlyDeliveries": 3
  },
  {
    "id": "C041",
    "name": "대현공업",
    "shortName": "대현공업",
    "lat": 35.4689,
    "lng": 129.3073,
    "product": "CO2",
    "productName": "액화탄산",
    "tankCapacity": 4200,
    "currentLevel": 90,
    "dailyConsumption": 460,
    "depletionDays": 8.2,
    "riskLevel": "safe",
    "monthlyDeliveries": 3
  },
  {
    "id": "C042",
    "name": "현대미포조선본사",
    "shortName": "현대미포조선",
    "lat": 35.4945,
    "lng": 129.3807,
    "product": "C2H4",
    "productName": "액화에틸렌",
    "tankCapacity": 4400,
    "currentLevel": 55,
    "dailyConsumption": 560,
    "depletionDays": 4.3,
    "riskLevel": "warning",
    "monthlyDeliveries": 3
  },
  {
    "id": "C043",
    "name": "가스마켓코리아",
    "shortName": "가스마켓코리",
    "lat": 35.5115,
    "lng": 129.3843,
    "product": "O2",
    "productName": "액화산소",
    "tankCapacity": 3200,
    "currentLevel": 78,
    "dailyConsumption": 210,
    "depletionDays": 11.9,
    "riskLevel": "safe",
    "monthlyDeliveries": 2
  },
  {
    "id": "C044",
    "name": "현우 3공장",
    "shortName": "현우 3공장",
    "lat": 35.5328,
    "lng": 129.334,
    "product": "AR",
    "productName": "액화아르곤",
    "tankCapacity": 4700,
    "currentLevel": 55,
    "dailyConsumption": 290,
    "depletionDays": 8.9,
    "riskLevel": "safe",
    "monthlyDeliveries": 8
  },
  {
    "id": "C045",
    "name": "홍인화학(CA)",
    "shortName": "홍인화학(C",
    "lat": 35.5282,
    "lng": 129.3061,
    "product": "N2",
    "productName": "액화질소",
    "tankCapacity": 5500,
    "currentLevel": 34,
    "dailyConsumption": 420,
    "depletionDays": 4.5,
    "riskLevel": "warning",
    "monthlyDeliveries": 7
  }
]